,City Name,Lat,Long,Max Temp,Humidity,Cloudiness,Wind Speed,Country,Date
0,Tromsø,69.65,18.96,285.15,87,75,12.9,NO,1597448976
1,Bluff,-46.6,168.33,280.93,83,77,1.79,NZ,1597448978
2,Punta Arenas,-53.15,-70.92,273.15,91,100,2.1,CL,1597448979
3,Tautira,-17.73,-149.15,301.15,69,75,4.6,PF,1597448981
4,Souillac,-20.52,57.52,294.15,73,40,2.1,MU,1597448983
5,Laguna,38.42,-121.42,314.82,13,1,3.1,US,1597448984
6,Albany,42.6,-73.97,299.82,62,74,3.09,US,1597448693
7,Hong Kong,22.29,114.16,304.26,74,0,2.36,HK,1597448852
8,Rikitea,-23.12,-134.97,294.72,76,40,5.13,PF,1597448989
9,Mataura,-46.19,168.86,280.93,83,8,1.79,NZ,1597448990
10,Kapaa,22.08,-159.32,302.59,66,20,5.7,US,1597448910
11,Xining,36.62,101.77,286.58,69,54,0.89,CN,1597448993
12,Ushuaia,-54.8,-68.3,275.15,92,40,5.1,AR,1597448714
13,Nador,35.17,-2.93,299.15,39,0,3.1,MA,1597448908
14,San Cristobal,7.77,-72.22,301.15,69,40,1.5,VE,1597448997
15,Tiksi,71.69,128.87,277.71,83,100,4.86,RU,1597448998
16,‘Āhuimanu,21.44,-157.84,305.15,65,20,5.1,US,1597448999
17,Saskylakh,71.92,114.08,280.56,66,87,2.21,RU,1597449001
18,Iraray,8.99,118.05,300.78,76,3,0.95,PH,1597449003
19,Ribeira Grande,38.52,-28.7,295.97,80,66,5.35,PT,1597449004
20,Kudahuvadhoo,2.67,72.89,301.68,65,73,2.85,MV,1597448826
21,Yashkino,55.87,85.43,289.15,100,75,2.0,RU,1597449009
22,George Town,5.41,100.34,299.15,94,20,1.91,MY,1597448766
23,Lompoc,34.64,-120.46,310.15,29,1,2.6,US,1597448803
24,Portel,-1.94,-50.82,300.66,57,52,1.15,BR,1597449014
25,Barrow,71.29,-156.79,284.15,76,75,5.7,US,1597449015
26,Saint-Augustin,51.23,-58.65,285.72,61,1,1.58,CA,1597449017
27,Dikson,73.51,80.55,279.92,97,97,7.47,RU,1597449018
28,Addanki,15.82,79.98,298.31,82,100,2.84,IN,1597449019
29,São José da Coroa Grande,-8.9,-35.15,295.81,85,6,2.31,BR,1597449021
30,Pevek,69.7,170.31,279.78,86,100,3.88,RU,1597449022
31,Flinders,-34.58,150.86,289.82,74,99,3.13,AU,1597449024
32,Sungai Penuh,-2.08,101.38,292.07,81,100,1.04,ID,1597449027
33,Kindersley,51.47,-109.17,296.15,31,75,6.2,CA,1597449029
34,Puerto Ayora,-0.74,-90.35,293.15,94,98,1.34,EC,1597449031
35,Porto Tolle,44.95,12.32,297.59,87,56,2.58,IT,1597449033
36,Vysokogornyy,50.12,139.15,284.86,95,96,1.97,RU,1597449034
37,Jarwal,27.17,81.55,300.64,84,100,3.5,IN,1597449036
38,Narsaq,60.92,-46.05,283.15,76,18,2.1,GL,1597449038
39,Jamestown,42.1,-79.24,298.15,50,1,4.6,US,1597449039
40,Lázaro Cárdenas,17.96,-102.2,302.21,78,100,4.57,MX,1597449040
41,Antalaha,-14.9,50.28,294.54,79,95,3.85,MG,1597449042
42,Kotka,60.47,26.95,288.15,93,40,2.1,FI,1597449043
43,New Norfolk,-42.78,147.06,284.82,92,86,0.51,AU,1597449044
44,Cape Town,-33.93,18.42,289.26,71,75,6.7,ZA,1597448975
45,Khatanga,71.97,102.5,285.92,50,23,7.51,RU,1597448820
46,Salinópolis,-0.61,-47.36,300.12,81,99,6.45,BR,1597449048
47,Orbetello,42.44,11.22,295.15,88,0,1.0,IT,1597449049
48,Hermanus,-34.42,19.23,286.48,81,45,5.81,ZA,1597449050
49,Touros,-5.2,-35.46,296.15,88,20,2.6,BR,1597449052
50,Esperance,-33.87,121.9,281.15,93,28,4.6,AU,1597449053
51,Faya,18.39,42.45,295.15,64,95,1.61,SA,1597448885
52,New London,41.36,-72.1,299.82,69,1,2.1,US,1597448790
53,Vaini,-21.2,-175.2,297.15,69,40,6.7,TO,1597449057
54,Kualakapuas,-3.01,114.39,298.15,94,20,1.0,ID,1597449058
55,Chunskiy,56.08,99.63,287.9,87,90,1.35,RU,1597449059
56,Half Moon Bay,37.46,-122.43,311.48,30,1,6.2,US,1597449060
57,Torbay,47.67,-52.73,287.04,100,90,6.7,CA,1597449062
58,Port Alfred,-33.59,26.89,285.74,70,0,2.83,ZA,1597449063
59,Batagay-Alyta,67.8,130.41,278.63,77,96,0.31,RU,1597449064
60,Tamandaré,-8.76,-35.1,295.76,85,7,2.08,BR,1597449066
61,Bethel,41.37,-73.41,300.15,54,20,3.6,US,1597449067
62,Corner Brook,48.97,-57.95,290.15,76,20,3.1,CA,1597449068
63,Salalah,17.02,54.09,298.15,94,75,1.5,OM,1597449069
64,Hofn,64.25,-15.21,286.4,49,15,2.02,IS,1597448810
65,Hobart,-42.88,147.33,284.82,93,75,0.12,AU,1597449073
66,Dok Kham Tai,19.16,99.99,295.52,96,100,1.53,TH,1597449074
67,Bredasdorp,-34.53,20.04,288.15,58,0,7.2,ZA,1597449077
68,Mar del Plata,-38.0,-57.56,285.15,58,83,2.6,AR,1597448939
69,Norman Wells,65.28,-126.83,288.15,87,90,6.7,CA,1597448821
70,Hasaki,35.73,140.83,304.26,79,75,0.5,JP,1597449081
71,Muros,42.78,-9.06,289.15,82,40,1.0,ES,1597449082
72,Tuatapere,-46.13,167.68,280.93,83,23,1.79,NZ,1597448899
73,Perth,-31.93,115.83,287.04,71,8,7.7,AU,1597448875
74,Thompson,55.74,-97.86,295.15,43,75,4.1,CA,1597449087
75,Busselton,-33.65,115.33,286.48,87,35,7.09,AU,1597449088
76,Tooele,40.53,-112.3,305.15,22,1,3.1,US,1597449090
77,Tasiilaq,65.61,-37.64,281.15,52,0,0.5,GL,1597449091
78,Ahipara,-35.17,173.17,287.73,69,13,3.19,NZ,1597449093
79,Bouar,5.93,15.6,291.5,99,77,1.54,CF,1597449096
80,Abu Kamal,34.45,40.92,300.27,36,0,9.34,SY,1597449098
81,Kaitangata,-46.28,169.85,280.93,65,5,1.79,NZ,1597449099
82,Cuamba,-14.8,36.54,288.3,86,22,1.66,MZ,1597449100
83,Yellowknife,62.46,-114.35,288.15,67,75,9.8,CA,1597449101
84,Mufulira,-12.55,28.24,285.62,42,52,3.11,ZM,1597449103
85,Marakkanam,12.2,79.95,300.82,72,100,3.61,IN,1597449104
86,Longyearbyen,78.22,15.64,281.15,65,75,12.3,SJ,1597449105
87,Honningsvåg,70.98,25.97,284.33,95,100,5.64,NO,1597449107
88,Castro,-24.79,-50.01,290.13,83,37,2.42,BR,1597449108
89,Kamakwie,9.5,-12.23,295.12,98,66,1.27,SL,1597449109
90,Labuhan,-6.88,112.21,298.93,86,5,3.09,ID,1597449111
91,Usinsk,65.99,57.53,276.56,88,6,2.09,RU,1597449112
92,Thayetmyo,19.32,95.18,297.25,96,100,3.03,MM,1597449113
93,Arraial do Cabo,-22.97,-42.03,295.72,85,19,10.72,BR,1597449115
94,Lukulu,-14.37,23.24,286.67,36,0,2.77,ZM,1597449116
95,Saldanha,-33.01,17.94,287.15,71,73,2.1,ZA,1597448873
96,Aras,42.56,-2.36,294.15,83,43,1.5,ES,1597449119
97,Port Elizabeth,-33.92,25.57,283.15,87,0,3.1,ZA,1597449120
98,Upernavik,72.79,-56.15,277.74,69,0,5.48,GL,1597449121
99,Namatanai,-3.67,152.43,302.17,68,100,1.62,PG,1597449122
100,Fortuna,40.6,-124.16,303.71,47,74,0.89,US,1597449124
101,Mweka,-4.85,21.57,296.83,58,70,0.97,CD,1597449125
102,Qaanaaq,77.48,-69.36,276.96,77,100,2.72,GL,1597449126
103,Provideniya,64.38,-173.3,286.97,60,74,3.8,RU,1597449128
104,Hilo,19.73,-155.09,304.15,55,1,4.1,US,1597449122
105,Imeni Morozova,59.98,31.04,290.37,83,100,2.43,RU,1597449130
106,Ambahta,29.85,77.33,299.35,84,4,2.51,IN,1597449131
107,Cockburn Town,21.46,-71.14,301.15,78,40,2.6,TC,1597449133
108,Autun,46.95,4.3,290.15,82,6,0.55,FR,1597449084
109,Mehamn,71.04,27.85,284.1,91,100,4.3,NO,1597449135
110,Comodoro Rivadavia,-45.87,-67.5,280.15,52,100,12.9,AR,1597449136
111,Fairbanks,64.84,-147.72,295.15,37,75,2.12,US,1597449023
112,Atuona,-9.8,-139.03,298.51,72,66,7.02,PF,1597449140
113,Amapá,1.0,-52.0,296.95,81,58,1.52,BR,1597449142
114,Ganzhou,28.82,115.43,302.02,74,63,1.86,CN,1597449143
115,Te Anau,-45.42,167.72,279.99,68,31,0.06,NZ,1597449144
116,Bantou,26.22,117.49,300.07,78,0,0.15,CN,1597449145
117,Pyatnitskoye,50.42,37.83,283.06,83,0,2.86,RU,1597449147
118,Marawi,8.0,124.29,299.26,82,91,2.24,PH,1597449148
119,Djibo,14.1,-1.63,300.11,67,99,8.08,BF,1597449149
120,Taiyuan,37.87,112.56,292.15,88,100,1.0,CN,1597449150
121,Carnarvon,-24.87,113.63,283.15,100,0,2.1,AU,1597449153
122,Sitka,57.05,-135.33,287.15,93,90,5.1,US,1597449154
123,Tegul'det,57.31,88.17,287.88,97,37,2.09,RU,1597449155
124,Hīt,33.64,42.83,303.21,18,0,7.52,IQ,1597449157
125,Wau,7.7,28.0,294.84,92,93,1.05,SS,1597449158
126,Rawson,-43.3,-65.1,281.24,52,29,6.55,AR,1597449160
127,Phonhong,18.5,102.42,297.15,100,90,1.0,LA,1597449161
128,Vao,-22.67,167.48,292.89,75,15,8.28,NC,1597449162
129,Pisco,-13.7,-76.22,290.37,77,24,6.7,PE,1597448893
130,Obo,5.4,26.49,293.78,94,90,0.99,CF,1597449165
131,Karratha,-20.74,116.85,292.27,39,1,4.1,AU,1597449167
132,Sangar,63.92,127.47,285.12,48,0,1.42,RU,1597449169
133,Okha,53.57,142.95,288.95,77,79,6.7,RU,1597449170
134,Severo-Kuril'sk,50.68,156.12,285.01,76,99,3.62,RU,1597449171
135,Kumul,42.8,93.45,294.41,50,72,5.5,CN,1597449172
136,Lebu,-37.62,-73.65,281.19,68,67,3.94,CL,1597449174
137,Nongstoin,25.52,91.27,292.33,100,100,1.0,IN,1597449175
138,Itoman,26.12,127.67,303.15,74,20,3.1,JP,1597448886
139,Yatou,37.15,122.38,299.59,90,99,5.95,CN,1597449178
140,Grand Gaube,-20.01,57.66,291.48,78,7,1.34,MU,1597448882
141,Kimbe,-5.55,150.14,300.75,78,100,0.77,PG,1597449181
142,Mahébourg,-20.41,57.7,294.15,73,40,2.1,MU,1597449182
143,Bambous Virieux,-20.34,57.76,294.15,73,40,2.1,MU,1597449184
144,Chui,-33.7,-53.46,285.3,89,80,2.77,UY,1597449186
145,Tuktoyaktuk,69.45,-133.04,284.15,81,75,1.5,CA,1597449187
146,Ponta do Sol,32.67,-17.1,296.15,64,20,3.6,PT,1597449189
147,Līsakovsk,52.54,62.49,287.01,94,16,2.75,KZ,1597449190
148,East London,-33.02,27.91,291.07,28,0,2.06,ZA,1597449191
149,Artigas,-30.4,-56.47,288.96,86,96,1.73,UY,1597449192
150,Vila Velha,-20.33,-40.29,298.15,78,0,3.6,BR,1597449194
151,Velizh,55.61,31.2,282.96,83,3,1.31,RU,1597449195
152,São Filipe,14.9,-24.5,298.54,88,83,2.63,CV,1597449196
153,Santa Rosa,14.31,121.11,299.26,94,83,0.5,PH,1597448979
154,Quatre Cocos,-20.21,57.76,294.15,73,40,2.1,MU,1597449199
155,Ambon City,-3.7,128.18,298.15,94,75,2.6,ID,1597449200
156,Vardø,70.37,31.11,284.29,91,100,1.54,NO,1597449202
157,Svirstroy,60.8,33.72,284.63,89,100,1.56,RU,1597449203
158,Port Hardy,50.7,-127.42,290.15,82,90,3.6,CA,1597449204
159,Kastamonu Province,41.5,33.67,281.81,90,0,0.45,TR,1597449205
160,Kourou,5.16,-52.65,301.15,78,4,3.1,GF,1597449207
161,Beyneu,45.32,55.2,295.11,36,58,4.76,KZ,1597449208
162,Maniitsoq,65.42,-52.9,279.7,86,52,5.67,GL,1597449209
163,Ongandjera,-17.88,15.07,290.03,27,3,3.14,NA,1597449212
164,Mossamedes,-15.2,12.15,288.82,91,40,3.69,AO,1597449214
165,Nyrob,60.73,56.72,280.32,81,93,1.88,RU,1597449215
166,Ituporanga,-27.41,-49.6,290.93,99,95,0.45,BR,1597449216
167,Wagar,16.15,36.2,299.93,72,100,9.91,SD,1597449217
168,Mogadishu,2.04,45.34,297.34,82,81,8.66,SO,1597448987
169,Hithadhoo,-0.6,73.08,301.05,74,91,4.08,MV,1597449054
170,Nampa,43.54,-116.56,305.37,11,1,4.6,US,1597448985
171,Padang,-0.95,100.35,298.89,70,96,2.16,ID,1597449224
172,Ayagoz,47.97,80.44,286.93,77,36,3.84,KZ,1597449225
173,Akdepe,42.06,59.38,295.15,43,0,3.1,TM,1597449226
174,Butaritari,3.07,172.79,300.98,80,72,5.63,KI,1597449227
175,Bridlington,54.08,-0.19,289.15,87,100,4.1,GB,1597449229
176,Along,28.17,94.77,296.18,88,98,0.32,IN,1597449230
177,Jodhpur,26.29,73.03,301.08,82,100,6.66,IN,1597449232
178,Krasnosel'kup,65.7,82.47,288.84,94,99,4.05,RU,1597449234
179,Cherskiy,68.75,161.3,281.38,68,97,5.81,RU,1597449237
180,Kovvūr,17.02,81.73,296.6,94,100,4.82,IN,1597449239
181,Tigil',57.8,158.67,290.99,50,15,3.88,RU,1597449240
182,Araouane,18.9,-3.53,303.79,48,37,9.45,ML,1597449243
183,Sioux Lookout,50.1,-91.92,297.15,69,75,2.1,CA,1597449244
184,Eyl,7.98,49.82,297.66,75,100,11.87,SO,1597449247
185,Udachny,66.42,112.4,280.15,70,75,1.82,RU,1597449248
186,Sinjār,36.32,41.88,301.32,17,0,4.23,IQ,1597449250
187,Lüderitz,-26.65,15.16,286.68,73,0,7.43,NA,1597449251
188,Pilar,-9.6,-35.96,294.15,100,22,0.5,BR,1597449026
189,Williams Lake,52.14,-122.14,291.15,55,90,2.6,CA,1597449253
190,Marsá Maţrūḩ,31.35,27.25,298.15,78,0,2.1,EG,1597449255
191,Avarua,-21.21,-159.78,299.15,88,19,5.1,CK,1597449256
192,Abu Samrah,35.3,37.18,295.0,59,0,3.29,SY,1597449257
193,Savonlinna,61.87,28.88,289.15,87,90,3.6,FI,1597449259
194,Saint-Philippe,-21.36,55.77,292.15,72,75,2.6,RE,1597449260
195,San Lazaro,18.04,-88.66,304.15,66,75,6.7,BZ,1597449262
196,Viedma,-40.81,-63.0,278.15,57,0,1.34,AR,1597449264
197,Lālmohan,22.34,90.74,301.64,79,100,9.8,BD,1597449265
198,Dogondoutchi,13.64,4.03,299.83,76,80,8.84,NE,1597449266
199,Naliya,23.27,68.83,300.82,87,100,4.57,IN,1597449267
200,Benghazi,32.12,20.07,299.3,81,0,5.08,LY,1597449269
201,Buritis,-15.62,-46.42,295.49,42,0,1.0,BR,1597449005
202,Shimoda,34.67,138.95,303.15,84,20,3.6,JP,1597449272
203,Cabo San Lucas,22.89,-109.91,303.71,66,40,7.2,MX,1597449164
204,Lalupon,7.47,4.07,294.2,97,100,1.89,NG,1597449275
205,Sakakah,29.97,40.21,302.15,26,0,6.2,SA,1597449277
206,St. George's,12.06,-61.75,301.15,78,20,4.1,GD,1597449004
207,Tabou,4.42,-7.35,297.46,84,50,4.43,CI,1597449279
208,Gravdal,68.12,13.5,286.77,95,100,8.98,NO,1597449282
209,Richards Bay,-28.78,32.04,291.11,64,0,7.43,ZA,1597449283
210,Yalvaç,38.3,31.18,289.65,49,0,2.44,TR,1597449284
211,High Rock,26.62,-78.28,303.15,74,20,3.1,BS,1597449285
212,Nacozari,25.34,-108.26,305.93,67,19,2.68,MX,1597449287
213,Kitgum,3.28,32.89,291.58,93,100,0.69,UG,1597449090
214,Saint-Joseph,-21.37,55.62,292.15,72,75,2.6,RE,1597449291
215,Erenhot,43.65,111.98,297.0,42,84,4.14,CN,1597449293
216,Luwuk,-0.95,122.79,299.51,66,13,2.82,ID,1597449136
217,Nikolskoye,59.7,30.79,289.15,72,40,1.0,RU,1597449296
218,Faanui,-16.48,-151.75,298.79,82,7,7.62,PF,1597449298
219,Poconé,-16.26,-56.62,302.76,26,31,2.03,BR,1597449300
220,Ascension,30.22,-90.9,304.26,66,100,2.88,US,1597449301
221,Union,40.63,-74.27,301.48,54,1,2.6,US,1597449302
222,Igarka,67.47,86.58,287.81,77,97,6.41,RU,1597449304
223,Beringovskiy,63.05,179.32,287.22,67,53,7.61,RU,1597449305
224,Bathsheba,13.22,-59.52,300.15,78,20,2.6,BB,1597449306
225,Santa Isabel,-23.32,-46.22,297.15,73,34,2.6,BR,1597449308
226,Saint Paul Harbor,57.79,-152.41,294.15,40,1,5.1,US,1597449309
227,Pascagoula,30.37,-88.56,298.15,94,1,3.77,US,1597449312
228,Ostrovnoy,68.05,39.51,284.3,91,100,5.45,RU,1597449313
229,Oil City,41.43,-79.71,302.15,39,1,3.1,US,1597449314
230,Neftçala,39.37,49.25,297.38,69,0,5.61,AZ,1597449315
231,Sechura,-5.56,-80.82,291.71,75,89,7.22,PE,1597449317
232,Coahuayana Viejo,18.73,-103.68,300.15,78,75,1.91,MX,1597449318
233,Ronneby,56.21,15.28,286.15,93,0,2.6,SE,1597449319
234,Shimanovsk,52.0,127.7,287.88,97,100,4.4,RU,1597449320
235,Coração de Jesus,-16.69,-44.37,294.35,45,0,3.74,BR,1597449322
236,Nanortalik,60.14,-45.24,279.34,81,83,2.93,GL,1597449324
237,Maní,4.82,-72.29,299.32,80,72,2.07,CO,1597449325
238,Dormidontovka,47.77,134.91,291.25,95,98,2.96,RU,1597449327
239,Ixtapa,20.7,-105.2,305.15,66,75,2.6,MX,1597449328
240,São João da Barra,-21.64,-41.05,296.23,84,7,10.81,BR,1597449330
241,Costineşti,43.95,28.63,295.15,68,5,4.1,RO,1597449332
242,Saint George,37.1,-113.58,314.26,12,1,6.2,US,1597449335
243,Chimoré,-16.98,-65.13,297.0,76,17,1.23,BO,1597449336
244,Dubti,11.74,41.09,302.73,55,76,7.0,ET,1597449337
245,Zhuhai,22.28,113.57,302.59,79,40,2.1,CN,1597449338
246,Airai,-8.93,125.41,293.01,50,0,1.67,TL,1597449340
247,Teknāf,20.86,92.31,299.9,85,100,6.11,BD,1597449341
248,Juegang,32.32,121.19,301.86,79,29,4.99,CN,1597449343
249,Rupert,42.62,-113.68,302.15,18,1,4.1,US,1597449060
250,Ocós,14.51,-92.19,304.15,70,75,2.6,GT,1597449346
251,Manbij,36.53,37.95,299.15,31,0,2.6,SY,1597449348
252,Evensk,61.95,159.23,286.35,69,100,2.23,RU,1597449349
253,Ende,-8.84,121.66,298.64,77,75,2.43,ID,1597449350
254,Sambava,-14.27,50.17,294.71,84,97,5.0,MG,1597449352
255,Coyhaique,-45.58,-72.07,276.15,93,75,3.6,CL,1597449353
256,Mozarlândia,-14.74,-50.57,298.58,34,0,0.98,BR,1597449356
257,Bud,39.45,-86.18,300.15,65,40,1.59,US,1597449357
258,Kasongo-Lunda,-6.47,16.82,296.64,46,6,1.36,CD,1597449359
259,Kirakira,-10.45,161.92,302.15,68,100,1.49,SB,1597449361
260,Broome,42.25,-75.83,298.15,61,75,2.1,US,1597449362
261,Wanning,18.8,110.4,300.3,81,55,1.5,CN,1597449364
262,Kargil,34.57,76.1,286.76,59,0,3.2,IN,1597449366
263,Lavrentiya,65.58,-171.0,288.5,56,87,3.4,RU,1597449367
264,Parrita,9.52,-84.32,295.15,94,75,1.5,CR,1597449108
265,Shuangcheng,45.35,126.28,292.15,100,19,3.0,CN,1597449369
266,Pindobaçu,-10.74,-40.36,293.37,76,59,2.86,BR,1597449371
267,Yemel'yanovo,56.17,92.68,287.15,93,66,0.98,RU,1597449372
268,Mount Isa,-20.73,139.5,294.15,30,0,6.2,AU,1597449373
269,Lengshuijiang,27.69,111.43,300.03,77,43,1.54,CN,1597449374
270,Douentza,15.0,-2.95,302.02,55,85,3.91,ML,1597449376
271,Pochutla,15.74,-96.47,305.15,55,20,4.1,MX,1597449377
272,Codrington,-38.27,141.97,284.39,89,57,2.97,AU,1597449378
273,Balotra,25.83,72.23,303.1,73,100,6.05,IN,1597449379
274,Khanbari,27.37,87.2,296.69,72,98,0.27,NP,1597449381
275,Matinhos,-25.82,-48.54,293.71,94,75,3.1,BR,1597449382
276,Inuvik,68.35,-133.72,286.15,76,90,3.6,CA,1597449383
277,Skellefteå,64.75,20.95,287.15,82,87,3.1,SE,1597449386
278,Diego de Almagro,-26.37,-70.05,280.01,60,0,0.89,CL,1597449387
279,Gboko,7.32,9.0,296.16,91,97,2.27,NG,1597449388
280,Umluj,25.02,37.27,301.08,71,88,1.31,SA,1597449390
281,San Nicolas,18.17,120.6,299.15,94,40,1.5,PH,1597449391
282,Tuy Hoa,13.08,109.3,299.07,84,100,4.46,VN,1597449392
283,Pervomayskoye,43.92,46.71,292.97,62,100,1.24,RU,1597449395
284,Urucará,-2.54,-57.76,301.44,46,93,1.49,BR,1597449396
285,Grand-Lahou,5.14,-5.02,296.99,88,57,4.68,CI,1597449397
286,Bāfq,31.61,55.41,299.63,18,22,2.06,IR,1597449398
287,Ballina,-28.87,153.57,291.48,93,70,5.98,AU,1597449400
288,Yerbogachën,61.28,108.01,282.2,64,0,4.33,RU,1597449401
289,Adrar,20.5,-10.07,310.18,26,52,2.88,MR,1597449402
290,Hereford,52.06,-2.71,290.93,94,75,2.51,GB,1597449118
291,Petropavlovsk-Kamchatskiy,53.05,158.65,287.15,76,40,3.0,RU,1597449405
292,Bumba,2.18,22.47,296.4,87,75,0.88,CD,1597449406
293,Isangel,-19.55,169.27,296.57,69,20,5.82,VU,1597449407
294,Laas,46.62,10.7,287.15,93,75,4.1,IT,1597449409
295,Emba,48.83,58.14,291.73,64,7,1.0,KZ,1597449410
296,Rabo de Peixe,37.8,-25.58,295.15,78,20,3.1,PT,1597449411
297,Onokhoy,51.93,108.07,288.15,87,10,1.0,RU,1597449415
298,Lesnikovo,55.28,65.32,286.05,66,100,3.49,RU,1597449417
299,Agnibilékrou,7.13,-3.2,294.38,96,100,1.92,CI,1597449418
300,Cairns,-16.92,145.77,298.71,65,45,2.1,AU,1597449221
301,Saint Anthony,45.02,-93.22,301.48,65,90,5.1,US,1597449420
302,Mahon,39.89,4.27,295.15,94,0,0.34,ES,1597449422
303,Cabedelo,-6.98,-34.83,296.15,94,20,2.6,BR,1597449423
304,Kavieng,-2.57,150.8,302.33,66,100,1.29,PG,1597449426
305,Vestmanna,62.16,-7.17,285.15,100,94,1.0,FO,1597449427
306,Coquimbo,-29.95,-71.34,285.15,76,0,2.6,CL,1597449428
307,The Valley,18.22,-63.06,302.15,74,20,5.7,AI,1597449430
308,Nuuk,64.18,-51.72,280.15,87,75,7.7,GL,1597449431
309,Zaraza,9.35,-65.32,297.71,94,54,2.09,VE,1597449432
310,Bandarbeyla,9.49,50.81,297.41,75,100,13.57,SO,1597449433
311,Bagdarin,54.43,113.6,287.15,84,91,0.38,RU,1597449435
312,Fianarantsoa,-21.43,47.08,282.89,91,72,2.19,MG,1597449436
313,Trenton,40.22,-74.74,300.15,54,1,4.1,US,1597449397
314,Salisbury,51.07,-1.8,291.48,93,100,2.1,GB,1597449203
315,Aloleng,16.13,119.78,301.43,74,89,1.0,PH,1597449440
316,Mayo,38.89,-76.51,298.15,94,90,3.6,US,1597449442
317,Baghdad,33.34,44.4,303.15,30,0,4.1,IQ,1597449443
318,Lodja,-3.48,23.43,298.3,68,53,1.21,CD,1597449444
319,Romitan,39.93,64.38,295.15,49,0,2.1,UZ,1597449446
320,Palmer,42.16,-72.33,301.15,45,75,2.6,US,1597449447
321,Ibrā’,22.69,58.53,304.29,51,92,0.51,OM,1597449449
322,Sinnamary,5.38,-52.95,299.98,80,5,5.23,GF,1597449450
323,Anadyr,64.75,177.48,288.15,67,89,2.0,RU,1597449451
324,Alice Springs,-23.7,133.88,288.15,41,0,3.1,AU,1597449331
325,Ancud,-41.87,-73.82,277.59,93,75,4.1,CL,1597449456
326,Itarema,-2.92,-39.92,298.5,76,15,6.98,BR,1597449457
327,Pedasí,7.53,-80.03,299.11,87,100,5.74,PA,1597449458
328,Mulegé,26.88,-111.98,306.41,51,0,4.76,MX,1597449459
329,Cidreira,-30.18,-50.21,288.92,97,84,4.37,BR,1597449461
330,Beāwar,26.1,74.32,298.22,90,100,5.95,IN,1597449463
331,Los Llanos de Aridane,28.66,-17.92,296.15,73,75,7.7,ES,1597449466
332,Srednekolymsk,67.45,153.68,280.89,68,96,4.38,RU,1597449467
333,Sainte-Marie,-20.9,55.55,290.15,77,37,2.6,RE,1597449468
334,Grindavik,63.84,-22.43,283.15,93,75,6.2,IS,1597449470
335,Shirokiy,49.76,129.52,288.73,96,100,6.06,RU,1597449471
336,Abbeville,50.1,1.83,292.59,53,79,2.17,FR,1597449472
337,Yangi Marg`ilon,40.43,71.72,295.15,33,16,2.1,UZ,1597449473
338,Kutum,14.2,24.67,297.35,68,83,2.49,SD,1597449476
339,Bayjī,34.93,43.49,301.95,17,0,5.38,IQ,1597449477
340,Mae Sai,20.43,99.88,297.15,100,40,1.0,TH,1597449480
341,Horki,54.29,30.98,282.82,89,0,2.14,BY,1597449482
342,Kologriv,58.83,44.32,279.57,95,4,2.26,RU,1597449483
343,Sturgeon Falls,46.36,-79.93,299.15,41,20,2.1,CA,1597449484
344,Sīrjān,29.45,55.68,298.33,27,44,3.35,IR,1597449485
345,Buraidah,26.33,43.98,302.15,37,61,1.5,SA,1597449487
346,La Maná,-0.93,-79.22,287.15,67,40,8.2,EC,1597449488
347,Elmadağ,39.92,33.23,293.15,59,0,5.1,TR,1597449491
348,Acapulco de Juárez,16.86,-99.89,303.15,79,75,5.7,MX,1597449205
349,Sola,-13.88,167.55,299.94,82,11,6.71,VU,1597449493
350,Port-Gentil,-0.72,8.78,298.15,88,90,7.03,GA,1597449494
351,Severnoye,56.35,78.36,284.47,98,100,3.04,RU,1597449496
352,Pangody,65.85,74.49,280.25,85,92,6.52,RU,1597449497
353,Conceição do Araguaia,-8.26,-49.26,301.02,35,11,1.06,BR,1597449428
354,Clarence Town,-32.58,151.78,290.15,72,28,10.3,AU,1597449499
355,Galle,6.04,80.22,299.0,88,92,4.44,LK,1597449501
356,Smithers,54.78,-127.17,286.15,100,90,1.5,CA,1597449502
357,Vestmannaeyjar,63.44,-20.27,283.78,87,26,2.25,IS,1597449503
358,Santa Cruz de la Sierra,-17.8,-63.17,297.15,88,75,4.1,BO,1597449349
359,Buala,-8.14,159.59,302.45,67,56,1.83,SB,1597449506
360,Dandong,40.13,124.39,298.22,91,100,3.16,CN,1597449507
361,Reconquista,-29.15,-59.65,288.63,74,30,2.28,AR,1597449431
362,Talaya,61.38,152.75,288.05,56,100,1.35,RU,1597449509
363,Paamiut,61.99,-49.67,279.76,82,0,11.05,GL,1597449511
364,Clyde River,70.47,-68.59,279.15,93,90,7.2,CA,1597449512
365,La Tuque,47.43,-72.78,290.45,89,53,1.33,CA,1597449513
366,Caxito,-8.58,13.66,295.15,88,75,2.1,AO,1597449514
367,Haines Junction,60.75,-137.51,287.85,58,100,0.43,CA,1597449516
368,Lárdos,36.09,28.02,301.15,51,0,4.1,GR,1597449517
369,Camiri,-20.05,-63.52,294.63,58,0,0.37,BO,1597449518
370,Knysna,-34.04,23.05,282.15,76,0,2.1,ZA,1597449339
371,Saint-Pierre,-21.34,55.48,292.15,72,75,2.6,RE,1597449521
372,Shingū,33.73,135.98,302.15,79,20,2.6,JP,1597449522
373,Ilulissat,69.22,-51.1,279.15,56,14,1.5,GL,1597449523
374,Kulu,39.1,33.08,288.46,64,0,3.69,TR,1597449525
375,Xam Nua,20.42,104.04,293.55,92,81,0.5,LA,1597449526
376,Yārāda,17.65,83.27,297.15,100,90,4.1,IN,1597449527
377,Mercedes,-34.65,-59.43,285.37,80,30,2.24,AR,1597449529
378,Atasū,48.68,71.64,286.97,72,51,1.47,KZ,1597449530
379,Varde,55.62,8.48,289.26,93,0,1.5,DK,1597449531
380,Port Lincoln,-34.73,135.87,286.74,70,3,4.68,AU,1597449533
381,Esna,25.29,32.55,304.15,31,63,2.1,EG,1597449534
382,Sechelt,49.47,-123.77,294.82,65,46,1.34,CA,1597449535
383,São José do Rio Preto,-20.82,-49.38,301.15,28,25,1.32,BR,1597449300
384,Iqaluit,63.75,-68.51,287.15,62,75,6.2,CA,1597449538
385,Saint-François,46.42,3.91,289.82,93,19,0.59,FR,1597449539
386,Camacha,33.08,-16.33,295.15,78,20,4.6,PT,1597449541
387,Necochea,-38.55,-58.74,283.15,83,85,3.13,AR,1597449543
388,Araure,9.56,-69.21,301.15,65,46,7.7,VE,1597449544
389,Kaitong,44.81,123.15,294.5,69,0,6.21,CN,1597449547
390,Robertsport,6.75,-11.37,297.81,84,99,4.96,LR,1597449548
391,Morant Bay,17.88,-76.41,304.15,58,20,9.3,JM,1597449549
392,Tiarei,-17.53,-149.33,301.15,69,75,4.6,PF,1597449550
393,Cuencamé de Ceniceros,24.87,-103.7,303.29,23,2,6.61,MX,1597449552
394,Nicoya,10.15,-85.45,297.15,94,75,1.5,CR,1597449553
395,Ouargaye,11.5,0.06,297.07,93,100,5.27,BF,1597449554
396,Jacareacanga,-6.22,-57.75,300.43,38,6,0.47,BR,1597449556
397,Nikki,9.94,3.21,294.12,97,100,2.84,BJ,1597449557
398,Solnechnyy,50.72,136.63,287.4,95,100,1.6,RU,1597449558
399,Acajutla,13.59,-89.83,296.15,100,40,2.19,SV,1597449529
400,Caravelas,-17.71,-39.25,294.92,85,0,2.77,BR,1597449561
401,Port Hawkesbury,45.62,-61.35,294.26,83,90,3.1,CA,1597449389
402,Yaan,7.38,8.57,295.53,96,99,1.17,NG,1597449563
403,Awjilah,29.11,21.29,300.35,38,0,4.21,LY,1597449564
404,Katherine,-14.47,132.27,300.15,61,57,3.1,AU,1597449566
405,Bengkulu,-3.8,102.27,297.9,80,39,1.92,ID,1597449567
406,Bombarral,39.27,-9.16,290.93,91,0,2.25,PT,1597449568
407,Jalu,29.03,21.55,300.29,38,0,4.09,LY,1597449569
408,Thinadhoo,0.53,72.93,301.54,70,87,2.58,MV,1597449571
409,Saint-Paul,-21.01,55.27,290.15,77,2,2.6,RE,1597449572
410,Matamoros,25.53,-103.25,309.15,19,20,2.6,MX,1597449337
411,Kisangani,0.52,25.2,295.0,94,99,1.07,CD,1597449575
412,Plaeng Yao,13.58,101.28,303.15,80,100,1.56,TH,1597449576
413,Biak,-0.91,122.88,298.87,70,15,3.25,ID,1597449577
414,Bambanglipuro,-7.95,110.28,298.31,85,25,2.52,ID,1597449579
415,Olinda,-8.01,-34.86,297.15,78,40,2.1,BR,1597449580
416,Luganville,-15.53,167.17,301.15,78,75,5.7,VU,1597449581
417,Umm Kaddadah,13.6,26.69,301.21,59,78,4.97,SD,1597449584
418,Constantine,36.37,6.61,301.15,39,40,4.1,DZ,1597449585
419,Bandar-e Lengeh,26.56,54.88,304.26,82,8,5.54,IR,1597449586
420,Vinsady,44.08,42.97,292.15,52,39,4.0,RU,1597449588
421,Iracoubo,5.48,-53.2,300.1,80,1,5.45,GF,1597449590
422,Selenginsk,52.01,106.86,288.15,87,58,1.0,RU,1597449591
423,Bongandanga,1.5,21.05,296.19,85,89,0.16,CD,1597449593
424,Wakkanai,45.41,141.67,294.15,88,75,4.6,JP,1597449596
425,Verkh-Usugli,52.7,115.17,287.32,84,87,0.72,RU,1597449598
426,Kargopol',61.51,38.95,282.68,93,81,1.33,RU,1597449599
427,Skibotn,69.39,20.27,285.15,87,75,12.9,NO,1597449601
428,Toora-Khem,52.47,96.11,286.06,78,16,0.21,RU,1597449603
429,Havøysund,71.0,24.66,285.15,93,75,8.7,NO,1597449605
430,Pangnirtung,66.15,-65.71,283.83,51,39,2.42,CA,1597449606
431,Lagoa,39.05,-27.98,296.11,78,59,5.63,PT,1597449608
432,Diffa,13.32,12.61,299.26,77,32,4.74,NE,1597449610
433,Tessalit,20.2,1.01,308.9,18,8,1.92,ML,1597449611
434,Naze,28.37,129.48,303.15,79,20,2.1,JP,1597449612
435,Port Blair,11.67,92.75,301.14,79,100,7.51,IN,1597449614
436,Dezful,32.38,48.41,302.63,18,0,0.8,IR,1597449616
437,Hvide Sande,56.0,8.13,289.26,79,2,4.53,DK,1597449617
438,Torit,4.41,32.57,293.91,90,100,1.09,SS,1597449618
439,Gornji Milanovac,44.03,20.45,294.15,100,43,2.1,RS,1597449620
440,Alappuzha,9.49,76.33,298.66,84,100,1.53,IN,1597449621
441,Milos,36.75,24.43,298.15,65,0,4.6,GR,1597449623
442,Zdvinsk,54.7,78.66,285.17,91,98,3.67,RU,1597449624
443,Macenta,8.54,-9.47,293.95,97,100,1.23,GN,1597449625
444,Atar,20.52,-13.05,306.73,43,36,2.63,MR,1597449626
445,Prince Rupert,54.32,-130.32,288.15,100,90,3.1,CA,1597449604
446,Cayenne,4.93,-52.33,301.15,78,1,3.1,GF,1597449632
447,Grandview,38.89,-94.53,304.26,58,1,3.1,US,1597449633
448,Pyapon,16.28,95.68,298.34,91,100,2.95,MM,1597449634
449,Dunedin,-45.87,170.5,281.48,66,0,6.71,NZ,1597449595
450,Henties Bay,-22.12,14.28,285.93,94,0,2.45,NA,1597449637
451,Ténenkou,14.46,-4.92,300.75,67,90,3.82,ML,1597449638
452,Vilhena,-12.74,-60.15,300.15,54,55,3.1,BR,1597449640
453,Kahului,20.89,-156.47,305.15,52,40,11.3,US,1597449643
454,Koumac,-20.57,164.28,295.95,61,1,2.24,NC,1597449644
455,Örnsköldsvik,63.29,18.72,286.15,82,73,3.1,SE,1597449645
456,Rosita,13.93,-84.4,297.54,97,100,0.97,NI,1597449647
457,Khasan,42.43,130.64,298.09,71,45,1.92,RU,1597449649
458,Nagato,34.38,131.2,303.15,79,20,3.1,JP,1597449651
459,Hamina,60.57,27.2,288.15,93,67,2.1,FI,1597449652
460,Icod de los Vinos,28.37,-16.71,295.93,81,41,0.45,ES,1597449653
461,Roald,62.58,6.13,287.15,82,20,6.7,NO,1597449655
462,Westport,41.14,-73.36,300.93,65,1,2.6,US,1597449642
463,Boende,-0.22,20.87,296.13,94,84,0.76,CD,1597449657
464,Puerto Quijarro,-17.78,-57.77,302.83,30,14,1.42,BO,1597449659
465,Yar-Sale,66.83,70.83,281.04,78,42,3.84,RU,1597449660
466,Burnie,-41.07,145.92,284.26,81,23,4.92,AU,1597449662
467,Buchanan,5.88,-10.05,296.15,94,75,3.69,LR,1597449663
468,Calama,-22.47,-68.93,286.15,10,0,7.2,CL,1597449515
469,Yinzhu,35.88,119.98,302.15,89,99,3.0,CN,1597449665
470,Garhi Khairo,28.06,67.98,307.34,55,8,4.53,PK,1597449667
471,Posse,-14.09,-46.37,296.58,40,0,4.14,BR,1597449668
472,Laurel,39.1,-76.85,298.15,94,90,2.6,US,1597449547
473,Ngunguru,-35.62,174.5,286.48,3,85,2.68,NZ,1597449672
474,Kokopo,-4.35,152.26,301.37,71,100,2.37,PG,1597449673
475,Chokurdakh,70.63,147.92,277.57,79,100,2.2,RU,1597449674
476,Taos,36.41,-105.57,302.15,17,75,5.1,US,1597449600
477,Springbok,-29.66,17.89,278.18,88,0,2.03,ZA,1597449677
478,Wilmington,34.23,-77.94,302.15,74,1,5.7,US,1597449602
479,Kavaratti,10.57,72.64,301.03,78,100,8.88,IN,1597449680
480,Kjøpsvik,68.1,16.37,285.93,93,100,13.4,NO,1597449681
481,Vangaindrano,-23.35,47.6,290.25,89,40,1.12,MG,1597449682
482,San Jerónimo,-11.95,-75.28,285.35,59,42,2.5,PE,1597449685
483,Khandyga,62.67,135.6,286.07,45,0,2.34,RU,1597449686
484,Moindou,-21.69,165.68,297.15,57,40,2.6,NC,1597449687
485,Lishu,43.3,124.33,296.32,69,2,3.12,CN,1597449689
486,Samarai,-10.62,150.67,298.78,73,100,4.79,PG,1597449690
487,Brae,60.4,-1.35,284.15,93,13,5.7,GB,1597449692
488,Farmington,36.73,-108.22,310.15,9,1,7.7,US,1597449596
489,Otradnoye,59.78,30.82,289.15,72,40,1.0,RU,1597449409
490,Tual,-5.67,132.75,299.65,83,89,7.82,ID,1597449695
491,Lakhdenpokh'ya,61.52,30.2,288.71,91,100,2.13,RU,1597449697
492,Kaeo,-35.1,173.78,286.48,3,60,2.68,NZ,1597449698
493,Kaihua,23.37,104.28,291.89,93,99,2.46,CN,1597449699
494,Ternate,0.8,127.4,300.29,78,75,3.43,ID,1597449701
495,Blacksburg,37.23,-80.41,296.48,100,40,1.12,US,1597449702
496,Aklavik,68.22,-135.01,285.15,87,90,2.1,CA,1597449704
497,North Platte,41.12,-100.77,302.15,39,1,5.7,US,1597449642
498,Tura,25.52,90.22,296.94,97,100,2.94,IN,1597449708
499,São Geraldo do Araguaia,-6.4,-48.55,301.17,37,24,1.47,BR,1597449709
500,Arrondissement de Saint-Denis,48.92,2.33,293.15,88,75,1.5,FR,1597449710
501,Jamame,0.07,42.75,296.82,79,96,4.69,SO,1597449712
502,Arbazh,57.68,48.31,282.37,80,96,5.29,RU,1597449713
503,Izazi,-7.2,35.73,290.15,55,5,4.1,TZ,1597449714
504,Safaga,26.73,33.94,305.15,27,83,3.6,EG,1597449716
505,Novopavlovka,51.22,109.21,289.03,74,29,1.85,RU,1597449717
506,Nioro,13.35,-15.75,297.61,93,96,2.34,GM,1597449718
507,Kīhei,20.79,-156.47,305.15,52,40,11.3,US,1597449432
508,Ponta Delgada,37.73,-25.67,295.15,78,20,2.6,PT,1597449721
509,Mahibadhoo,3.78,72.97,301.43,69,69,3.39,MV,1597449722
510,Santana do Acaraú,-3.46,-40.21,296.57,74,87,1.89,BR,1597449723
511,Koslan,63.46,48.9,279.54,82,64,0.85,RU,1597449724
512,Pescantina,45.48,10.87,294.26,73,86,2.6,IT,1597449726
513,Outlook,51.5,-107.05,294.84,39,80,3.87,CA,1597449728
514,Novy Urengoy,66.08,76.63,281.89,81,97,8.02,RU,1597449730
515,Alice Town,25.72,-79.3,302.22,72,3,4.31,BS,1597449731
516,Nanding,36.75,118.06,302.46,72,100,2.62,CN,1597449732
517,Ugoofaaru,5.67,73.0,300.82,77,97,4.52,MV,1597449733
518,Ridgecrest,35.62,-117.67,316.15,11,40,5.1,US,1597449735
519,Vila do Maio,15.13,-23.22,298.15,94,90,3.1,CV,1597449738
520,Chiredzi,-21.05,31.67,286.06,93,0,1.4,ZW,1597449739
521,Bogovarovo,58.98,47.02,279.96,81,42,3.63,RU,1597449740
522,Pacific Grove,36.62,-121.92,308.15,24,1,5.1,US,1597449742
523,Poronaysk,49.22,143.12,287.35,86,99,4.56,RU,1597449743
524,Batemans Bay,-35.72,150.18,287.04,81,98,3.13,AU,1597449744
525,Zabid,14.2,43.32,304.37,64,90,2.78,YE,1597449745
526,Weirton,40.42,-80.59,304.15,31,1,3.6,US,1597449450
527,Nyurba,63.28,118.33,283.1,65,97,3.15,RU,1597449749
528,Bereket,39.24,55.52,301.26,48,46,4.06,TM,1597449751
529,Ferme-Neuve,46.7,-75.45,292.13,74,5,2.03,CA,1597449752
530,Gulābpura,25.9,74.67,298.65,88,100,4.68,IN,1597449753
531,Zhigansk,66.77,123.37,280.87,67,63,8.61,RU,1597449754
532,Carutapera,-1.2,-46.02,298.52,83,100,3.26,BR,1597449756
533,Ossora,59.24,163.07,286.26,82,100,6.91,RU,1597449757
534,Rockland,41.17,-74.05,300.37,69,66,2.51,US,1597449758
535,Mattru,7.62,-11.83,296.9,88,100,1.38,SL,1597449759
536,Trairi,-3.28,-39.27,298.33,77,9,5.58,BR,1597449761
537,Marrakesh,31.63,-8.01,297.15,57,0,1.5,MA,1597449586
538,Kununurra,-15.77,128.73,297.15,25,58,0.5,AU,1597449764
539,San Patricio,19.22,-104.7,305.15,75,75,5.1,MX,1597449765
540,Hobyo,5.35,48.53,297.31,85,100,10.01,SO,1597449767
541,Yozgat Province,39.58,35.33,282.8,92,0,2.6,TR,1597449768
542,Río Gallegos,-51.62,-69.22,273.15,94,96,1.0,AR,1597449769
543,Mīnāb,27.15,57.08,305.15,79,0,0.37,IR,1597449770
544,Husavik,66.04,-17.34,287.15,41,7,11.3,IS,1597449772
545,Uspenskaya,45.76,41.07,287.46,62,19,0.76,RU,1597449773
546,Dwārka,22.24,68.97,301.07,84,100,8.16,IN,1597449774
547,Fort Nelson,58.81,-122.7,292.15,55,75,3.6,CA,1597449775
548,Lavumisa,-27.31,31.89,286.15,87,0,1.0,SZ,1597449777
549,Lubsko,51.78,14.97,293.71,76,100,4.33,PL,1597449779
550,Ponnāni,10.77,75.93,298.15,94,20,2.6,IN,1597449780
551,Lingyuan,41.24,119.4,300.02,58,91,3.94,CN,1597449781
552,Tongchuanshi,35.08,109.09,292.37,91,99,0.22,CN,1597449782
553,Hedensted,55.77,9.7,290.37,93,0,1.0,DK,1597449784
554,Shelburne,44.08,-80.2,301.15,39,1,3.1,CA,1597449722
555,Ouésso,1.61,16.05,295.28,89,95,0.93,CG,1597449787
556,Lanigan,51.85,-105.03,292.79,49,40,6.81,CA,1597449508
557,Arua,3.02,30.91,291.05,91,100,0.96,UG,1597449789
558,Berdigestyakh,62.1,126.7,286.19,51,0,1.89,RU,1597449792
559,Hanmer Springs,-42.52,172.82,284.49,50,0,1.27,NZ,1597449794
560,Mareeba,-17.0,145.43,299.26,74,53,0.89,AU,1597449795
561,Alofi,-19.06,-169.92,298.15,88,27,4.6,NU,1597449797
562,Winnemucca,40.97,-117.74,307.15,14,1,4.6,US,1597449798
563,Manggar,-2.88,108.27,300.81,80,35,4.25,ID,1597449799
564,Manas,42.73,47.68,293.15,68,40,9.0,RU,1597449800
565,Mayskiy,47.69,40.1,284.15,76,15,3.0,RU,1597449802
566,Moose Factory,51.26,-80.61,301.15,45,1,3.1,CA,1597449803
567,Jacqueville,5.21,-4.41,297.15,100,20,3.6,CI,1597449804
568,Dakar,14.69,-17.44,301.15,83,40,1.0,SN,1597449310
569,Zaysan,47.47,84.87,290.03,53,70,2.55,KZ,1597449808
570,Rincon,32.3,-81.24,301.15,74,75,2.1,US,1597449809
571,Abhā,18.22,42.51,295.15,64,95,1.29,SA,1597449811
572,Amga,60.9,131.96,288.43,47,0,1.37,RU,1597449812
573,Hualmay,-11.1,-77.61,288.44,82,60,5.06,PE,1597449813
574,Nishihara,26.18,127.76,303.71,74,20,3.6,JP,1597449814
575,Suicheng,33.9,117.93,300.59,87,100,3.44,CN,1597449816
576,Yulara,-25.24,130.99,284.15,53,0,2.1,AU,1597449817
577,Geraldton,-28.77,114.6,283.15,76,0,2.6,AU,1597449819
578,Guayabetal,4.21,-73.82,298.15,78,40,0.67,CO,1597449820
579,Pouébo,-20.4,164.57,296.13,64,11,5.74,NC,1597449821
